[
  {
    "routes": [
      {
        "routeNumber": "10",
        "order": 6
      },
      {
        "routeNumber": "18",
        "order": 37
      },
      {
        "routeNumber": "33",
        "order": 34
      },
      {
        "routeNumber": "35a",
        "order": 37
      },
      {
        "routeNumber": "36",
        "order": 7
      },
      {
        "routeNumber": "41с",
        "order": 18
      },
      {
        "routeNumber": "45",
        "order": 30
      },
      {
        "routeNumber": "46",
        "order": 26
      },
      {
        "routeNumber": "55",
        "order": 27
      },
      {
        "routeNumber": "60",
        "order": 17
      }
    ],
    "localName": "улица Гаврилова",
    "name": "улица Гаврилова",
    "id": 476561763,
    "latitude": 55.8261948,
    "longitude": 49.1544853
  },
  {
    "routes": [
      {
        "routeNumber": "10а",
        "order": 16
      },
      {
        "routeNumber": "18",
        "order": 24
      },
      {
        "routeNumber": "33",
        "order": 16
      },
      {
        "routeNumber": "35",
        "order": 6
      },
      {
        "routeNumber": "36",
        "order": 34
      },
      {
        "routeNumber": "41с",
        "order": 6
      },
      {
        "routeNumber": "45",
        "order": 44
      },
      {
        "routeNumber": "46",
        "order": 31
      },
      {
        "routeNumber": "55",
        "order": 6
      },
      {
        "routeNumber": "60",
        "order": 31
      }
    ],
    "localName": "улица Гаврилова",
    "name": "улица Гаврилова",
    "id": 476561767,
    "latitude": 55.825716,
    "longitude": 49.1541954
  },
  {
    "routes": [
      {
        "routeNumber": "10а",
        "order": 13
      },
      {
        "routeNumber": "15",
        "order": 12
      },
      {
        "routeNumber": "18",
        "order": 21
      },
      {
        "routeNumber": "35",
        "order": 3
      },
      {
        "routeNumber": "36",
        "order": 31
      },
      {
        "routeNumber": "41с",
        "order": 3
      },
      {
        "routeNumber": "45",
        "order": 41
      }
    ],
    "localName": "Роддом",
    "name": "Роддом",
    "id": 476561771,
    "latitude": 55.8354355,
    "longitude": 49.1472143
  },
  {
    "routes": [
      {
        "routeNumber": "10",
        "order": 9
      },
      {
        "routeNumber": "18",
        "order": 40
      },
      {
        "routeNumber": "36",
        "order": 10
      },
      {
        "routeNumber": "41с",
        "order": 21
      },
      {
        "routeNumber": "45",
        "order": 33
      },
      {
        "routeNumber": "54",
        "order": 3
      }
    ],
    "localName": "Роддом",
    "name": "Роддом",
    "id": 476561774,
    "latitude": 55.8361186,
    "longitude": 49.1460023
  },
  {
    "routes": [
      {
        "routeNumber": "55",
        "order": 31
      },
      {
        "routeNumber": "75",
        "order": 1
      },
      {
        "routeNumber": "75",
        "order": 21
      }
    ],
    "localName": "Универсам №2",
    "name": "Универсам №2",
    "id": 476561781,
    "latitude": 55.8394247,
    "longitude": 49.1476118
  },
  {
    "routes": [
      {
        "routeNumber": "10а",
        "order": 15
      },
      {
        "routeNumber": "18",
        "order": 23
      },
      {
        "routeNumber": "33",
        "order": 15
      },
      {
        "routeNumber": "35",
        "order": 5
      },
      {
        "routeNumber": "36",
        "order": 33
      },
      {
        "routeNumber": "41с",
        "order": 5
      },
      {
        "routeNumber": "45",
        "order": 43
      },
      {
        "routeNumber": "46",
        "order": 30
      },
      {
        "routeNumber": "55",
        "order": 5
      },
      {
        "routeNumber": "60",
        "order": 30
      },
      {
        "routeNumber": "106",
        "order": 6
      }
    ],
    "localName": "улица Адоратского",
    "name": "улица Адоратского",
    "id": 476561791,
    "latitude": 55.8268832,
    "longitude": 49.1485105
  },
  {
    "routes": [
      {
        "routeNumber": "10",
        "order": 7
      },
      {
        "routeNumber": "18",
        "order": 38
      },
      {
        "routeNumber": "35a",
        "order": 38
      },
      {
        "routeNumber": "36",
        "order": 8
      },
      {
        "routeNumber": "41с",
        "order": 19
      },
      {
        "routeNumber": "45",
        "order": 31
      },
      {
        "routeNumber": "55",
        "order": 28
      }
    ],
    "localName": "улица Адоратского",
    "name": "улица Адоратского",
    "id": 476561794,
    "latitude": 55.8283345,
    "longitude": 49.1476582
  },
  {
    "routes": [
      {
        "routeNumber": "10",
        "order": 8
      },
      {
        "routeNumber": "18",
        "order": 39
      },
      {
        "routeNumber": "35a",
        "order": 39
      },
      {
        "routeNumber": "36",
        "order": 9
      },
      {
        "routeNumber": "41с",
        "order": 20
      },
      {
        "routeNumber": "45",
        "order": 32
      },
      {
        "routeNumber": "55",
        "order": 29
      }
    ],
    "localName": "Универсам №1",
    "name": "Универсам №1",
    "id": 476561800,
    "latitude": 55.8319738,
    "longitude": 49.1476109
  },
  {
    "routes": [
      {
        "routeNumber": "10а",
        "order": 14
      },
      {
        "routeNumber": "15",
        "order": 13
      },
      {
        "routeNumber": "18",
        "order": 22
      },
      {
        "routeNumber": "35",
        "order": 4
      },
      {
        "routeNumber": "36",
        "order": 32
      },
      {
        "routeNumber": "41с",
        "order": 4
      },
      {
        "routeNumber": "45",
        "order": 42
      }
    ],
    "localName": "Универсам №1",
    "name": "Универсам №1",
    "id": 476561802,
    "latitude": 55.8311337,
    "longitude": 49.1471086
  },
  {
    "routes": [
      {
        "routeNumber": "15",
        "order": 1
      },
      {
        "routeNumber": "15",
        "order": 14
      },
      {
        "routeNumber": "33",
        "order": 35
      },
      {
        "routeNumber": "46",
        "order": 27
      },
      {
        "routeNumber": "60",
        "order": 18
      },
      {
        "routeNumber": "106",
        "order": 7
      }
    ],
    "localName": "улица Адоратского",
    "name": "улица Адоратского",
    "id": 476561803,
    "latitude": 55.8273146,
    "longitude": 49.1463895
  },
  {
    "routes": [
      {
        "routeNumber": "15",
        "order": 2
      },
      {
        "routeNumber": "29",
        "order": 8
      },
      {
        "routeNumber": "75",
        "order": 2
      }
    ],
    "localName": "Педагогический университет",
    "name": "Педагогический университет",
    "id": 704753729,
    "latitude": 55.7887849,
    "longitude": 49.1126824
  },
  {
    "routes": [
      {
        "routeNumber": "5",
        "order": 21
      },
      {
        "routeNumber": "33",
        "order": 7
      },
      {
        "routeNumber": "34",
        "order": 6
      },
      {
        "routeNumber": "45",
        "order": 7
      },
      {
        "routeNumber": "74",
        "order": 40
      },
      {
        "routeNumber": "111с",
        "order": 3
      },
      {
        "routeNumber": "197",
        "order": 2
      }
    ],
    "localName": "Деревня Универсиады",
    "name": "Деревня Универсиады",
    "id": 885831186,
    "latitude": 55.7416542,
    "longitude": 49.1939201
  },
  {
    "routes": [
      {
        "routeNumber": "29",
        "order": 3
      },
      {
        "routeNumber": "89",
        "order": 3
      }
    ],
    "localName": "улица Химиков",
    "name": "улица Химиков",
    "id": 899476450,
    "latitude": 55.871202,
    "longitude": 49.0157025
  },
  {
    "routes": [
      {
        "routeNumber": "4",
        "order": 34
      },
      {
        "routeNumber": "22",
        "order": 35
      },
      {
        "routeNumber": "33",
        "order": 42
      },
      {
        "routeNumber": "34",
        "order": 36
      },
      {
        "routeNumber": "45",
        "order": 67
      },
      {
        "routeNumber": "47",
        "order": 36
      },
      {
        "routeNumber": "55",
        "order": 25
      },
      {
        "routeNumber": "111с",
        "order": 3
      }
    ],
    "localName": "Деревня Универсиады (9-й микрорайон)",
    "name": "Деревня Универсиады (9-й микрорайон)",
    "id": 900937988,
    "latitude": 55.7412197,
    "longitude": 49.1918967
  },
  {
    "routes": [
      {
        "routeNumber": "33",
        "order": 8
      },
      {
        "routeNumber": "45",
        "order": 8
      },
      {
        "routeNumber": "74",
        "order": 41
      }
    ],
    "localName": "улица Юлиуса Фучика, д.8",
    "name": "улица Юлиуса Фучика, д.8",
    "id": 900937996,
    "latitude": 55.7431726,
    "longitude": 49.2028646
  },
  {
    "routes": [
      {
        "routeNumber": "5",
        "order": 22
      },
      {
        "routeNumber": "34",
        "order": 7
      },
      {
        "routeNumber": "70",
        "order": 34
      },
      {
        "routeNumber": "111с",
        "order": 4
      },
      {
        "routeNumber": "197",
        "order": 3
      }
    ],
    "localName": "улица Сыртлановой",
    "name": "улица Сыртлановой",
    "id": 900938033,
    "latitude": 55.7453807,
    "longitude": 49.2008213
  },
  {
    "routes": [
      {
        "routeNumber": "4",
        "order": 7
      },
      {
        "routeNumber": "5",
        "order": 26
      },
      {
        "routeNumber": "22",
        "order": 7
      },
      {
        "routeNumber": "55",
        "order": 4
      },
      {
        "routeNumber": "74",
        "order": 8
      },
      {
        "routeNumber": "77",
        "order": 2
      }
    ],
    "localName": "Деревня Универсиады (9-й микрорайон)",
    "name": "Деревня Универсиады (9-й микрорайон)",
    "id": 900938045,
    "latitude": 55.7418347,
    "longitude": 49.192255
  },
  {
    "routes": [
      {
        "routeNumber": "33",
        "order": 40
      },
      {
        "routeNumber": "45",
        "order": 65
      },
      {
        "routeNumber": "70",
        "order": 33
      },
      {
        "routeNumber": "74",
        "order": 6
      }
    ],
    "localName": "улица Юлиуса Фучика, д.8",
    "name": "улица Юлиуса Фучика, д.8",
    "id": 900938071,
    "latitude": 55.7438672,
    "longitude": 49.2025626
  },
  {
    "routes": [
      {
        "routeNumber": "6",
        "order": 22
      },
      {
        "routeNumber": "18",
        "order": 12
      },
      {
        "routeNumber": "22",
        "order": 8
      },
      {
        "routeNumber": "29",
        "order": 17
      },
      {
        "routeNumber": "33",
        "order": 7
      },
      {
        "routeNumber": "36",
        "order": 22
      },
      {
        "routeNumber": "47",
        "order": 9
      },
      {
        "routeNumber": "62",
        "order": 23
      },
      {
        "routeNumber": "63",
        "order": 13
      },
      {
        "routeNumber": "78",
        "order": 18
      },
      {
        "routeNumber": "89",
        "order": 22
      }
    ],
    "localName": "площадь Восстания",
    "name": "площадь Восстания",
    "id": 910610687,
    "latitude": 55.8328497,
    "longitude": 49.079995
  },
  {
    "routes": [
      {
        "routeNumber": "6",
        "order": 14
      },
      {
        "routeNumber": "18",
        "order": 50
      },
      {
        "routeNumber": "28",
        "order": 21
      },
      {
        "routeNumber": "29",
        "order": 14
      },
      {
        "routeNumber": "33",
        "order": 43
      },
      {
        "routeNumber": "53",
        "order": 23
      },
      {
        "routeNumber": "62",
        "order": 4
      },
      {
        "routeNumber": "78",
        "order": 2
      },
      {
        "routeNumber": "89",
        "order": 28
      }
    ],
    "localName": "площадь Восстания",
    "name": "площадь Восстания",
    "id": 910610689,
    "latitude": 55.8338991,
    "longitude": 49.080826
  },
  {
    "routes": [
      {
        "routeNumber": "6",
        "order": 13
      },
      {
        "routeNumber": "18",
        "order": 49
      },
      {
        "routeNumber": "28",
        "order": 20
      },
      {
        "routeNumber": "29",
        "order": 13
      },
      {
        "routeNumber": "33",
        "order": 42
      },
      {
        "routeNumber": "36",
        "order": 19
      },
      {
        "routeNumber": "47",
        "order": 27
      },
      {
        "routeNumber": "62",
        "order": 3
      },
      {
        "routeNumber": "63",
        "order": 2
      },
      {
        "routeNumber": "89",
        "order": 27
      }
    ],
    "localName": "Станция метро «Яшьлек»",
    "name": "Станция метро «Яшьлек»",
    "id": 910610709,
    "latitude": 55.8298987,
    "longitude": 49.0814384
  },
  {
    "routes": [
      {
        "routeNumber": "18",
        "order": 48
      },
      {
        "routeNumber": "22",
        "order": 29
      },
      {
        "routeNumber": "28a",
        "order": 4
      },
      {
        "routeNumber": "29",
        "order": 12
      },
      {
        "routeNumber": "36",
        "order": 18
      },
      {
        "routeNumber": "78",
        "order": 19
      }
    ],
    "localName": "проспект Ибрагимова",
    "name": "проспект Ибрагимова",
    "id": 910610751,
    "latitude": 55.8312108,
    "longitude": 49.090554
  },
  {
    "routes": [
      {
        "routeNumber": "18",
        "order": 13
      },
      {
        "routeNumber": "35",
        "order": 31
      },
      {
        "routeNumber": "36",
        "order": 23
      }
    ],
    "localName": "Коллективная улица",
    "name": "Коллективная улица",
    "id": 910610753,
    "latitude": 55.8326687,
    "longitude": 49.0910221
  },
  {
    "routes": [
      {
        "routeNumber": "10а",
        "order": 6
      },
      {
        "routeNumber": "18",
        "order": 14
      },
      {
        "routeNumber": "35",
        "order": 32
      },
      {
        "routeNumber": "36",
        "order": 24
      },
      {
        "routeNumber": "45",
        "order": 34
      },
      {
        "routeNumber": "46",
        "order": 23
      }
    ],
    "localName": "улица Восстания",
    "name": "улица Восстания",
    "id": 910610755,
    "latitude": 55.8346741,
    "longitude": 49.0903878
  },
  {
    "routes": [
      {
        "routeNumber": "60",
        "order": 25
      }
    ],
    "localName": "улица Восстания",
    "name": "улица Восстания",
    "id": 910610757,
    "latitude": 55.8350542,
    "longitude": 49.0897716
  },
  {
    "routes": [
      {
        "routeNumber": "22",
        "order": 9
      },
      {
        "routeNumber": "29",
        "order": 18
      },
      {
        "routeNumber": "35a",
        "order": 9
      },
      {
        "routeNumber": "108",
        "order": 8
      }
    ],
    "localName": "Волгоградская улица",
    "name": "Волгоградская улица",
    "id": 910610769,
    "latitude": 55.8294701,
    "longitude": 49.0919101
  },
  {
    "routes": [
      {
        "routeNumber": "1",
        "order": 22
      },
      {
        "routeNumber": "4",
        "order": 34
      },
      {
        "routeNumber": "41с",
        "order": 11
      },
      {
        "routeNumber": "84",
        "order": 2
      },
      {
        "routeNumber": "91",
        "order": 20
      }
    ],
    "localName": "2-й переезд",
    "name": "2-й переезд",
    "id": 910711142,
    "latitude": 55.8343374,
    "longitude": 49.1939995
  },
  {
    "routes": [
      {
        "routeNumber": "1",
        "order": 8
      },
      {
        "routeNumber": "4",
        "order": 9
      },
      {
        "routeNumber": "41с",
        "order": 14
      },
      {
        "routeNumber": "84",
        "order": 11
      },
      {
        "routeNumber": "91",
        "order": 13
      }
    ],
    "localName": "2-й переезд",
    "name": "2-й переезд",
    "id": 910711151,
    "latitude": 55.8345621,
    "longitude": 49.1933965
  },
  {
    "routes": [
      {
        "routeNumber": "15",
        "order": 3
      },
      {
        "routeNumber": "28a",
        "order": 25
      },
      {
        "routeNumber": "33",
        "order": 37
      },
      {
        "routeNumber": "46",
        "order": 29
      },
      {
        "routeNumber": "60",
        "order": 20
      },
      {
        "routeNumber": "106",
        "order": 9
      }
    ],
    "localName": "улица Мусина",
    "name": "улица Мусина",
    "id": 910711309,
    "latitude": 55.8273113,
    "longitude": 49.1194035
  },
  {
    "routes": [
      {
        "routeNumber": "28",
        "order": 6
      },
      {
        "routeNumber": "33",
        "order": 13
      },
      {
        "routeNumber": "46",
        "order": 28
      },
      {
        "routeNumber": "55",
        "order": 3
      },
      {
        "routeNumber": "60",
        "order": 28
      },
      {
        "routeNumber": "106",
        "order": 4
      }
    ],
    "localName": "улица Мусина",
    "name": "улица Мусина",
    "id": 910711315,
    "latitude": 55.8268241,
    "longitude": 49.1221946
  },
  {
    "routes": [
      {
        "routeNumber": "10а",
        "order": 18
      },
      {
        "routeNumber": "18",
        "order": 26
      },
      {
        "routeNumber": "33",
        "order": 18
      },
      {
        "routeNumber": "35",
        "order": 8
      },
      {
        "routeNumber": "36",
        "order": 36
      },
      {
        "routeNumber": "41с",
        "order": 8
      },
      {
        "routeNumber": "45",
        "order": 46
      },
      {
        "routeNumber": "46",
        "order": 33
      },
      {
        "routeNumber": "60",
        "order": 33
      }
    ],
    "localName": "Ветеринарная Академия",
    "name": "Ветеринарная Академия",
    "id": 910711331,
    "latitude": 55.818695,
    "longitude": 49.1765098
  },
  {
    "routes": [
      {
        "routeNumber": "10",
        "order": 4
      },
      {
        "routeNumber": "18",
        "order": 35
      },
      {
        "routeNumber": "33",
        "order": 32
      },
      {
        "routeNumber": "35a",
        "order": 35
      },
      {
        "routeNumber": "36",
        "order": 5
      },
      {
        "routeNumber": "41с",
        "order": 16
      },
      {
        "routeNumber": "45",
        "order": 28
      },
      {
        "routeNumber": "46",
        "order": 24
      },
      {
        "routeNumber": "55",
        "order": 25
      },
      {
        "routeNumber": "60",
        "order": 15
      }
    ],
    "localName": "Ветеринарная академия",
    "name": "Ветеринарная академия",
    "id": 910711336,
    "latitude": 55.8189742,
    "longitude": 49.1771065
  },
  {
    "routes": [
      {
        "routeNumber": "1",
        "order": 10
      },
      {
        "routeNumber": "5",
        "order": 2
      },
      {
        "routeNumber": "18",
        "order": 27
      },
      {
        "routeNumber": "33",
        "order": 19
      },
      {
        "routeNumber": "35",
        "order": 9
      },
      {
        "routeNumber": "91",
        "order": 15
      }
    ],
    "localName": "улица Академика Арбузова",
    "name": "улица Академика Арбузова",
    "id": 910711342,
    "latitude": 55.8140686,
    "longitude": 49.1799704
  },
  {
    "routes": [
      {
        "routeNumber": "15",
        "order": 6
      },
      {
        "routeNumber": "28",
        "order": 4
      },
      {
        "routeNumber": "33",
        "order": 11
      },
      {
        "routeNumber": "46",
        "order": 26
      },
      {
        "routeNumber": "60",
        "order": 26
      },
      {
        "routeNumber": "106",
        "order": 2
      }
    ],
    "localName": "Магазин «Океан»",
    "name": "Магазин «Океан»",
    "id": 910711362,
    "latitude": 55.8268476,
    "longitude": 49.1018646
  },
  {
    "routes": [
      {
        "routeNumber": "15",
        "order": 5
      },
      {
        "routeNumber": "33",
        "order": 39
      },
      {
        "routeNumber": "106",
        "order": 11
      }
    ],
    "localName": "Магазин «Океан»",
    "name": "Магазин «Океан»",
    "id": 910711366,
    "latitude": 55.8273481,
    "longitude": 49.1000328
  },
  {
    "routes": [
      {
        "routeNumber": "15",
        "order": 2
      },
      {
        "routeNumber": "28a",
        "order": 24
      },
      {
        "routeNumber": "33",
        "order": 36
      },
      {
        "routeNumber": "46",
        "order": 28
      },
      {
        "routeNumber": "60",
        "order": 19
      },
      {
        "routeNumber": "106",
        "order": 8
      }
    ],
    "localName": "улица Фатыха Амирхана",
    "name": "улица Фатыха Амирхана",
    "id": 920586807,
    "latitude": 55.8272976,
    "longitude": 49.1323368
  },
  {
    "routes": [
      {
        "routeNumber": "10",
        "order": 10
      },
      {
        "routeNumber": "18",
        "order": 41
      },
      {
        "routeNumber": "36",
        "order": 11
      },
      {
        "routeNumber": "41с",
        "order": 22
      },
      {
        "routeNumber": "45",
        "order": 34
      },
      {
        "routeNumber": "54",
        "order": 4
      }
    ],
    "localName": "Поликлиника №7",
    "name": "Поликлиника №7",
    "id": 920586811,
    "latitude": 55.8360977,
    "longitude": 49.1381023
  },
  {
    "routes": [
      {
        "routeNumber": "10",
        "order": 11
      },
      {
        "routeNumber": "18",
        "order": 42
      },
      {
        "routeNumber": "35a",
        "order": 3
      },
      {
        "routeNumber": "36",
        "order": 12
      },
      {
        "routeNumber": "41с",
        "order": 23
      },
      {
        "routeNumber": "43",
        "order": 24
      },
      {
        "routeNumber": "45",
        "order": 35
      },
      {
        "routeNumber": "55",
        "order": 1
      },
      {
        "routeNumber": "55",
        "order": 36
      }
    ],
    "localName": "39-й квартал",
    "name": "39-й квартал",
    "id": 920586825,
    "latitude": 55.8361433,
    "longitude": 49.1308502
  },
  {
    "routes": [
      {
        "routeNumber": "10а",
        "order": 11
      },
      {
        "routeNumber": "15",
        "order": 10
      },
      {
        "routeNumber": "18",
        "order": 19
      },
      {
        "routeNumber": "35",
        "order": 37
      },
      {
        "routeNumber": "36",
        "order": 29
      },
      {
        "routeNumber": "41с",
        "order": 1
      },
      {
        "routeNumber": "43",
        "order": 28
      },
      {
        "routeNumber": "45",
        "order": 39
      }
    ],
    "localName": "39-й квартал",
    "name": "39-й квартал",
    "id": 920586841,
    "latitude": 55.835804,
    "longitude": 49.1302542
  },
  {
    "routes": [
      {
        "routeNumber": "1",
        "order": 13
      },
      {
        "routeNumber": "4",
        "order": 25
      },
      {
        "routeNumber": "10",
        "order": 45
      },
      {
        "routeNumber": "35a",
        "order": 26
      },
      {
        "routeNumber": "70",
        "order": 3
      },
      {
        "routeNumber": "71",
        "order": 13
      },
      {
        "routeNumber": "91",
        "order": 11
      }
    ],
    "localName": "улица Абжалилова",
    "name": "улица Абжалилова",
    "id": 920586891,
    "latitude": 55.7929408,
    "longitude": 49.1647632
  },
  {
    "routes": [
      {
        "routeNumber": "1",
        "order": 17
      },
      {
        "routeNumber": "4",
        "order": 17
      },
      {
        "routeNumber": "10а",
        "order": 26
      },
      {
        "routeNumber": "35",
        "order": 16
      },
      {
        "routeNumber": "70",
        "order": 29
      },
      {
        "routeNumber": "71",
        "order": 16
      },
      {
        "routeNumber": "91",
        "order": 22
      }
    ],
    "localName": "улица Абжалилова",
    "name": "улица Абжалилова",
    "id": 920586899,
    "latitude": 55.7932361,
    "longitude": 49.164071
  },
  {
    "routes": [
      {
        "routeNumber": "74",
        "order": 9
      },
      {
        "routeNumber": "75",
        "order": 9
      }
    ],
    "localName": "Чистопольская улица",
    "name": "Чистопольская улица",
    "id": 920586900,
    "latitude": 55.8196278,
    "longitude": 49.1322423
  },
  {
    "routes": [
      {
        "routeNumber": "33",
        "order": 14
      },
      {
        "routeNumber": "46",
        "order": 29
      },
      {
        "routeNumber": "55",
        "order": 4
      },
      {
        "routeNumber": "60",
        "order": 29
      },
      {
        "routeNumber": "106",
        "order": 5
      }
    ],
    "localName": "улица Фатыха Амирхана",
    "name": "улица Фатыха Амирхана",
    "id": 920586901,
    "latitude": 55.8268413,
    "longitude": 49.1353222
  },
  {
    "routes": [
      {
        "routeNumber": "6",
        "order": 10
      },
      {
        "routeNumber": "15",
        "order": 4
      },
      {
        "routeNumber": "29",
        "order": 10
      },
      {
        "routeNumber": "35",
        "order": 28
      },
      {
        "routeNumber": "47",
        "order": 24
      },
      {
        "routeNumber": "74",
        "order": 32
      },
      {
        "routeNumber": "75",
        "order": 4
      }
    ],
    "localName": "Центральный стадион",
    "name": "Центральный стадион",
    "id": 920586956,
    "latitude": 55.7970793,
    "longitude": 49.1032103
  },
  {
    "routes": [
      {
        "routeNumber": "6",
        "order": 28
      },
      {
        "routeNumber": "15",
        "order": 10
      },
      {
        "routeNumber": "29",
        "order": 23
      },
      {
        "routeNumber": "35a",
        "order": 14
      },
      {
        "routeNumber": "47",
        "order": 15
      },
      {
        "routeNumber": "74",
        "order": 17
      },
      {
        "routeNumber": "75",
        "order": 17
      }
    ],
    "localName": "Центральный стадион",
    "name": "Центральный стадион",
    "id": 920586961,
    "latitude": 55.7971996,
    "longitude": 49.1017141
  },
  {
    "routes": [
      {
        "routeNumber": "22",
        "order": 15
      },
      {
        "routeNumber": "28a",
        "order": 11
      },
      {
        "routeNumber": "89",
        "order": 29
      }
    ],
    "localName": "улица Батурина",
    "name": "улица Батурина",
    "id": 920586964,
    "latitude": 55.7983806,
    "longitude": 49.109165
  },
  {
    "routes": [
      {
        "routeNumber": "10",
        "order": 44
      },
      {
        "routeNumber": "35a",
        "order": 25
      },
      {
        "routeNumber": "70",
        "order": 2
      },
      {
        "routeNumber": "91",
        "order": 10
      }
    ],
    "localName": "ЦПКиО им.Горького",
    "name": "ЦПКиО им.Горького",
    "id": 920586978,
    "latitude": 55.79255,
    "longitude": 49.1514879
  },
  {
    "routes": [
      {
        "routeNumber": "6",
        "order": 26
      },
      {
        "routeNumber": "15",
        "order": 8
      },
      {
        "routeNumber": "22",
        "order": 12
      },
      {
        "routeNumber": "28a",
        "order": 8
      },
      {
        "routeNumber": "29",
        "order": 21
      },
      {
        "routeNumber": "35a",
        "order": 12
      },
      {
        "routeNumber": "47",
        "order": 13
      },
      {
        "routeNumber": "74",
        "order": 15
      },
      {
        "routeNumber": "75",
        "order": 15
      },
      {
        "routeNumber": "89",
        "order": 26
      },
      {
        "routeNumber": "108",
        "order": 10
      }
    ],
    "localName": "Энергетический университет",
    "name": "Энергетический университет",
    "id": 920587003,
    "latitude": 55.8168175,
    "longitude": 49.0983625
  },
  {
    "routes": [
      {
        "routeNumber": "10а",
        "order": 9
      },
      {
        "routeNumber": "18",
        "order": 17
      },
      {
        "routeNumber": "35",
        "order": 35
      },
      {
        "routeNumber": "36",
        "order": 27
      },
      {
        "routeNumber": "43",
        "order": 26
      },
      {
        "routeNumber": "45",
        "order": 37
      }
    ],
    "localName": "жилой массив Дружба",
    "name": "жилой массив Дружба",
    "id": 945152115,
    "latitude": 55.835814,
    "longitude": 49.1130602
  },
  {
    "routes": [
      {
        "routeNumber": "10",
        "order": 13
      },
      {
        "routeNumber": "18",
        "order": 44
      },
      {
        "routeNumber": "35a",
        "order": 5
      },
      {
        "routeNumber": "36",
        "order": 14
      },
      {
        "routeNumber": "43",
        "order": 26
      },
      {
        "routeNumber": "45",
        "order": 37
      }
    ],
    "localName": "",
    "name": "ж.м. Дружба",
    "id": 945152116,
    "latitude": 55.8361802,
    "longitude": 49.1119353
  },
  {
    "routes": [
      {
        "routeNumber": "10",
        "order": 15
      },
      {
        "routeNumber": "18",
        "order": 46
      },
      {
        "routeNumber": "28a",
        "order": 2
      },
      {
        "routeNumber": "35a",
        "order": 7
      },
      {
        "routeNumber": "36",
        "order": 16
      },
      {
        "routeNumber": "45",
        "order": 39
      },
      {
        "routeNumber": "46",
        "order": 33
      },
      {
        "routeNumber": "60",
        "order": 24
      }
    ],
    "localName": "кафе «Солнышко»",
    "name": "кафе «Солнышко»",
    "id": 950755866,
    "latitude": 55.8360302,
    "longitude": 49.0998221
  },
  {
    "routes": [
      {
        "routeNumber": "10а",
        "order": 7
      },
      {
        "routeNumber": "18",
        "order": 15
      },
      {
        "routeNumber": "35",
        "order": 33
      },
      {
        "routeNumber": "36",
        "order": 25
      },
      {
        "routeNumber": "45",
        "order": 35
      },
      {
        "routeNumber": "46",
        "order": 24
      }
    ],
    "localName": "кафе «Солнышко»",
    "name": "кафе «Солнышко»",
    "id": 950755867,
    "latitude": 55.8357746,
    "longitude": 49.1005133
  },
  {
    "routes": [
      {
        "routeNumber": "10а",
        "order": 8
      },
      {
        "routeNumber": "18",
        "order": 16
      },
      {
        "routeNumber": "35",
        "order": 34
      },
      {
        "routeNumber": "36",
        "order": 26
      },
      {
        "routeNumber": "43",
        "order": 25
      },
      {
        "routeNumber": "45",
        "order": 36
      }
    ],
    "localName": "улица Голубятникова",
    "name": "улица Голубятникова",
    "id": 950760261,
    "latitude": 55.8358044,
    "longitude": 49.1055615
  },
  {
    "routes": [
      {
        "routeNumber": "5",
        "order": 24
      },
      {
        "routeNumber": "34",
        "order": 34
      },
      {
        "routeNumber": "68",
        "order": 15
      },
      {
        "routeNumber": "106",
        "order": 10
      },
      {
        "routeNumber": "111с",
        "order": 1
      },
      {
        "routeNumber": "111с",
        "order": 5
      },
      {
        "routeNumber": "123",
        "order": 1
      }
    ],
    "localName": "Станция метро «Проспект Победы»",
    "name": "Станция метро «Проспект Победы»",
    "id": 973848823,
    "latitude": 55.7493618,
    "longitude": 49.2068515
  },
  {
    "routes": [
      {
        "routeNumber": "5",
        "order": 22
      },
      {
        "routeNumber": "18",
        "order": 15
      },
      {
        "routeNumber": "30",
        "order": 17
      },
      {
        "routeNumber": "31",
        "order": 12
      },
      {
        "routeNumber": "34",
        "order": 32
      },
      {
        "routeNumber": "68",
        "order": 13
      }
    ],
    "localName": "улица Юлиуса Фучика",
    "name": "улица Юлиуса Фучика",
    "id": 976085475,
    "latitude": 55.7457031,
    "longitude": 49.2166276
  },
  {
    "routes": [
      {
        "routeNumber": "5",
        "order": 25
      },
      {
        "routeNumber": "18",
        "order": 44
      },
      {
        "routeNumber": "30",
        "order": 47
      },
      {
        "routeNumber": "31",
        "order": 42
      },
      {
        "routeNumber": "33",
        "order": 10
      },
      {
        "routeNumber": "34",
        "order": 10
      },
      {
        "routeNumber": "45",
        "order": 10
      },
      {
        "routeNumber": "68",
        "order": 3
      },
      {
        "routeNumber": "70",
        "order": 3
      },
      {
        "routeNumber": "74",
        "order": 43
      },
      {
        "routeNumber": "94",
        "order": 2
      }
    ],
    "localName": "улица Юлиуса Фучика",
    "name": "улица Юлиуса Фучика",
    "id": 976085483,
    "latitude": 55.7453858,
    "longitude": 49.2183903
  },
  {
    "routes": [
      {
        "routeNumber": "5",
        "order": 23
      },
      {
        "routeNumber": "18",
        "order": 16
      },
      {
        "routeNumber": "30",
        "order": 18
      },
      {
        "routeNumber": "31",
        "order": 13
      },
      {
        "routeNumber": "34",
        "order": 33
      },
      {
        "routeNumber": "68",
        "order": 14
      },
      {
        "routeNumber": "90",
        "order": 13
      }
    ],
    "localName": "Проспект Победы",
    "name": "Проспект Победы",
    "id": 977356824,
    "latitude": 55.7481127,
    "longitude": 49.2127409
  },
  {
    "routes": [
      {
        "routeNumber": "106",
        "order": 1
      },
      {
        "routeNumber": "123",
        "order": 1
      },
      {
        "routeNumber": "197",
        "order": 4
      }
    ],
    "localName": "Станция метро «Проспект Победы»",
    "name": "Станция метро «Проспект Победы»",
    "id": 977356825,
    "latitude": 55.7503849,
    "longitude": 49.2101378
  },
  {
    "routes": [
      {
        "routeNumber": "5",
        "order": 24
      },
      {
        "routeNumber": "18",
        "order": 43
      },
      {
        "routeNumber": "30",
        "order": 46
      },
      {
        "routeNumber": "31",
        "order": 41
      },
      {
        "routeNumber": "34",
        "order": 9
      },
      {
        "routeNumber": "68",
        "order": 2
      },
      {
        "routeNumber": "70",
        "order": 2
      },
      {
        "routeNumber": "90",
        "order": 17
      }
    ],
    "localName": "проспект Победы",
    "name": "проспект Победы",
    "id": 977356835,
    "latitude": 55.747656,
    "longitude": 49.2120619
  },
  {
    "routes": [
      {
        "routeNumber": "5",
        "order": 21
      },
      {
        "routeNumber": "18",
        "order": 14
      },
      {
        "routeNumber": "30",
        "order": 16
      },
      {
        "routeNumber": "31",
        "order": 11
      },
      {
        "routeNumber": "33",
        "order": 37
      },
      {
        "routeNumber": "34",
        "order": 31
      },
      {
        "routeNumber": "45",
        "order": 62
      },
      {
        "routeNumber": "68",
        "order": 12
      },
      {
        "routeNumber": "70",
        "order": 30
      },
      {
        "routeNumber": "74",
        "order": 3
      }
    ],
    "localName": "улица Генерала Сафиуллина",
    "name": "улица Генерала Сафиуллина",
    "id": 977359036,
    "latitude": 55.7489962,
    "longitude": 49.2239407
  },
  {
    "routes": [
      {
        "routeNumber": "197",
        "order": 5
      }
    ],
    "localName": "улица Генерала Сафиуллина",
    "name": "улица Генерала Сафиуллина",
    "id": 977359038,
    "latitude": 55.754515,
    "longitude": 49.2174778
  },
  {
    "routes": [
      {
        "routeNumber": "5",
        "order": 26
      },
      {
        "routeNumber": "18",
        "order": 45
      },
      {
        "routeNumber": "30",
        "order": 48
      },
      {
        "routeNumber": "31",
        "order": 43
      },
      {
        "routeNumber": "33",
        "order": 11
      },
      {
        "routeNumber": "34",
        "order": 11
      },
      {
        "routeNumber": "45",
        "order": 11
      },
      {
        "routeNumber": "68",
        "order": 4
      },
      {
        "routeNumber": "70",
        "order": 4
      },
      {
        "routeNumber": "74",
        "order": 44
      },
      {
        "routeNumber": "94",
        "order": 3
      }
    ],
    "localName": "улица Генерала Сафиуллина",
    "name": "улица Генерала Сафиуллина",
    "id": 977359039,
    "latitude": 55.749032,
    "longitude": 49.2247909
  },
  {
    "routes": [
      {
        "routeNumber": "33",
        "order": 9
      },
      {
        "routeNumber": "45",
        "order": 9
      },
      {
        "routeNumber": "74",
        "order": 42
      }
    ],
    "localName": "улица Юлиуса Фучика, д.14",
    "name": "улица Юлиуса Фучика, д.14",
    "id": 977360331,
    "latitude": 55.7428021,
    "longitude": 49.2113658
  },
  {
    "routes": [
      {
        "routeNumber": "33",
        "order": 39
      },
      {
        "routeNumber": "45",
        "order": 64
      },
      {
        "routeNumber": "70",
        "order": 32
      },
      {
        "routeNumber": "74",
        "order": 5
      }
    ],
    "localName": "улица Юлиуса Фучика, д.14",
    "name": "улица Юлиуса Фучика, д.14",
    "id": 977360334,
    "latitude": 55.7432016,
    "longitude": 49.2114064
  },
  {
    "routes": [
      {
        "routeNumber": "46",
        "order": 52
      }
    ],
    "localName": "улица Дубравная, д.11",
    "name": "улица Дубравная, д.11",
    "id": 977360335,
    "latitude": 55.7393552,
    "longitude": 49.2178811
  },
  {
    "routes": [
      {
        "routeNumber": "46",
        "order": 53
      }
    ],
    "localName": "улица Дубравная, д.23",
    "name": "улица Дубравная, д.23",
    "id": 977360336,
    "latitude": 55.7387803,
    "longitude": 49.2110265
  },
  {
    "routes": [
      {
        "routeNumber": "46",
        "order": 3
      }
    ],
    "localName": "улица Дубравная, д.11",
    "name": "улица Дубравная, д.11",
    "id": 977360337,
    "latitude": 55.7392115,
    "longitude": 49.2187093
  },
  {
    "routes": [
      {
        "routeNumber": "46",
        "order": 54
      },
      {
        "routeNumber": "77",
        "order": 1
      }
    ],
    "localName": "Жилой комплекс «Экопарк Дубрава»",
    "name": "Жилой комплекс «Экопарк Дубрава»",
    "id": 977360339,
    "latitude": 55.7380028,
    "longitude": 49.2014665
  },
  {
    "routes": [
      {
        "routeNumber": "46",
        "order": 1
      },
      {
        "routeNumber": "77",
        "order": 33
      }
    ],
    "localName": "Жилой комплекс «Экопарк Дубрава»",
    "name": "Жилой комплекс «Экопарк Дубрава»",
    "id": 977360340,
    "latitude": 55.7378275,
    "longitude": 49.202819
  },
  {
    "routes": [
      {
        "routeNumber": "46",
        "order": 2
      }
    ],
    "localName": "улица Дубравная, д.23",
    "name": "улица Дубравная, д.23",
    "id": 977360341,
    "latitude": 55.7386443,
    "longitude": 49.2125518
  },
  {
    "routes": [
      {
        "routeNumber": "4",
        "order": 33
      },
      {
        "routeNumber": "5",
        "order": 20
      },
      {
        "routeNumber": "22",
        "order": 34
      },
      {
        "routeNumber": "47",
        "order": 35
      },
      {
        "routeNumber": "55",
        "order": 24
      },
      {
        "routeNumber": "74",
        "order": 39
      },
      {
        "routeNumber": "77",
        "order": 32
      }
    ],
    "localName": "улица Академика Парина",
    "name": "улица Академика Парина",
    "id": 977443024,
    "latitude": 55.7462456,
    "longitude": 49.1903445
  },
  {
    "routes": [
      {
        "routeNumber": "18",
        "order": 42
      },
      {
        "routeNumber": "30",
        "order": 45
      },
      {
        "routeNumber": "31",
        "order": 40
      },
      {
        "routeNumber": "90",
        "order": 16
      }
    ],
    "localName": "улица Гарифьянова",
    "name": "улица Гарифьянова",
    "id": 977443027,
    "latitude": 55.7530727,
    "longitude": 49.2030743
  },
  {
    "routes": [
      {
        "routeNumber": "4",
        "order": 10
      },
      {
        "routeNumber": "5",
        "order": 29
      },
      {
        "routeNumber": "22",
        "order": 10
      },
      {
        "routeNumber": "47",
        "order": 5
      },
      {
        "routeNumber": "55",
        "order": 7
      },
      {
        "routeNumber": "77",
        "order": 5
      }
    ],
    "localName": "улица Хусаина Мавлютова",
    "name": "улица Хусаина Мавлютова",
    "id": 977443033,
    "latitude": 55.7544507,
    "longitude": 49.189193
  },
  {
    "routes": [
      {
        "routeNumber": "18",
        "order": 41
      },
      {
        "routeNumber": "30",
        "order": 44
      },
      {
        "routeNumber": "31",
        "order": 39
      },
      {
        "routeNumber": "90",
        "order": 15
      }
    ],
    "localName": "улица Братьев Касимовых",
    "name": "улица Братьев Касимовых",
    "id": 977443036,
    "latitude": 55.7562769,
    "longitude": 49.1975691
  },
  {
    "routes": [
      {
        "routeNumber": "18",
        "order": 18
      },
      {
        "routeNumber": "22",
        "order": 11
      },
      {
        "routeNumber": "30",
        "order": 20
      },
      {
        "routeNumber": "31",
        "order": 15
      },
      {
        "routeNumber": "55",
        "order": 8
      },
      {
        "routeNumber": "77",
        "order": 6
      },
      {
        "routeNumber": "90",
        "order": 15
      }
    ],
    "localName": "улица Братьев Касимовых",
    "name": "улица Братьев Касимовых",
    "id": 977443038,
    "latitude": 55.7572745,
    "longitude": 49.1968755
  },
  {
    "routes": [
      {
        "routeNumber": "4",
        "order": 9
      },
      {
        "routeNumber": "5",
        "order": 28
      },
      {
        "routeNumber": "22",
        "order": 9
      },
      {
        "routeNumber": "47",
        "order": 4
      },
      {
        "routeNumber": "55",
        "order": 6
      },
      {
        "routeNumber": "74",
        "order": 10
      },
      {
        "routeNumber": "77",
        "order": 4
      }
    ],
    "localName": "Медучилище",
    "name": "Медучилище",
    "id": 977443040,
    "latitude": 55.7491593,
    "longitude": 49.1899833
  },
  {
    "routes": [
      {
        "routeNumber": "4",
        "order": 31
      },
      {
        "routeNumber": "5",
        "order": 18
      },
      {
        "routeNumber": "22",
        "order": 32
      },
      {
        "routeNumber": "47",
        "order": 33
      },
      {
        "routeNumber": "55",
        "order": 22
      },
      {
        "routeNumber": "77",
        "order": 30
      }
    ],
    "localName": "улица Хусаина Мавлютова",
    "name": "улица Хусаина Мавлютова",
    "id": 977443044,
    "latitude": 55.7539222,
    "longitude": 49.1888827
  },
  {
    "routes": [
      {
        "routeNumber": "18",
        "order": 19
      },
      {
        "routeNumber": "22",
        "order": 12
      },
      {
        "routeNumber": "30",
        "order": 21
      },
      {
        "routeNumber": "31",
        "order": 16
      },
      {
        "routeNumber": "55",
        "order": 9
      },
      {
        "routeNumber": "77",
        "order": 7
      },
      {
        "routeNumber": "90",
        "order": 16
      }
    ],
    "localName": "Станция метро «Горки»",
    "name": "Станция метро «Горки»",
    "id": 977443047,
    "latitude": 55.7599583,
    "longitude": 49.1923911
  },
  {
    "routes": [
      {
        "routeNumber": "18",
        "order": 40
      },
      {
        "routeNumber": "30",
        "order": 43
      },
      {
        "routeNumber": "31",
        "order": 38
      },
      {
        "routeNumber": "90",
        "order": 14
      }
    ],
    "localName": "Станция метро «Горки»",
    "name": "Станция метро «Горки»",
    "id": 977443049,
    "latitude": 55.7598346,
    "longitude": 49.1914021
  },
  {
    "routes": [
      {
        "routeNumber": "4",
        "order": 32
      },
      {
        "routeNumber": "5",
        "order": 19
      },
      {
        "routeNumber": "22",
        "order": 33
      },
      {
        "routeNumber": "47",
        "order": 34
      },
      {
        "routeNumber": "55",
        "order": 23
      },
      {
        "routeNumber": "74",
        "order": 38
      },
      {
        "routeNumber": "77",
        "order": 31
      }
    ],
    "localName": "Медучилище",
    "name": "Медучилище",
    "id": 977443053,
    "latitude": 55.7496228,
    "longitude": 49.1894366
  },
  {
    "routes": [
      {
        "routeNumber": "4",
        "order": 8
      },
      {
        "routeNumber": "5",
        "order": 27
      },
      {
        "routeNumber": "22",
        "order": 8
      },
      {
        "routeNumber": "47",
        "order": 3
      },
      {
        "routeNumber": "55",
        "order": 5
      },
      {
        "routeNumber": "74",
        "order": 9
      },
      {
        "routeNumber": "77",
        "order": 3
      }
    ],
    "localName": "улица Академика Парина",
    "name": "улица Академика Парина",
    "id": 977443055,
    "latitude": 55.7457337,
    "longitude": 49.1908951
  },
  {
    "routes": [
      {
        "routeNumber": "4",
        "order": 11
      },
      {
        "routeNumber": "5",
        "order": 30
      },
      {
        "routeNumber": "47",
        "order": 6
      },
      {
        "routeNumber": "74",
        "order": 13
      }
    ],
    "localName": "Станция метро «Горки»",
    "name": "Станция метро «Горки»",
    "id": 977443068,
    "latitude": 55.7598289,
    "longitude": 49.1890099
  },
  {
    "routes": [
      {
        "routeNumber": "4",
        "order": 30
      },
      {
        "routeNumber": "5",
        "order": 17
      },
      {
        "routeNumber": "22",
        "order": 31
      },
      {
        "routeNumber": "47",
        "order": 32
      },
      {
        "routeNumber": "55",
        "order": 21
      },
      {
        "routeNumber": "74",
        "order": 35
      },
      {
        "routeNumber": "77",
        "order": 29
      }
    ],
    "localName": "Станция метро «Горки»",
    "name": "Станция метро «Горки»",
    "id": 977443071,
    "latitude": 55.759785,
    "longitude": 49.1885677
  },
  {
    "routes": [
      {
        "routeNumber": "18",
        "order": 17
      },
      {
        "routeNumber": "30",
        "order": 19
      },
      {
        "routeNumber": "31",
        "order": 14
      },
      {
        "routeNumber": "90",
        "order": 14
      }
    ],
    "localName": "улица Гарифьянова",
    "name": "улица Гарифьянова",
    "id": 977443074,
    "latitude": 55.7539062,
    "longitude": 49.202665
  },
  {
    "routes": [
      {
        "routeNumber": "1",
        "order": 23
      },
      {
        "routeNumber": "4",
        "order": 35
      },
      {
        "routeNumber": "34",
        "order": 38
      },
      {
        "routeNumber": "41с",
        "order": 12
      },
      {
        "routeNumber": "60",
        "order": 41
      },
      {
        "routeNumber": "84",
        "order": 3
      },
      {
        "routeNumber": "91",
        "order": 21
      }
    ],
    "localName": "жилой массив Карьер",
    "name": "жилой массив Карьер",
    "id": 986420542,
    "latitude": 55.8391241,
    "longitude": 49.1985213
  },
  {
    "routes": [
      {
        "routeNumber": "1",
        "order": 21
      },
      {
        "routeNumber": "4",
        "order": 21
      },
      {
        "routeNumber": "43",
        "order": 37
      }
    ],
    "localName": "Станция метро «Суконная Слобода»",
    "name": "Станция метро «Суконная Слобода»",
    "id": 986420558,
    "latitude": 55.7760681,
    "longitude": 49.1430309
  },
  {
    "routes": [
      {
        "routeNumber": "1",
        "order": 8
      },
      {
        "routeNumber": "2",
        "order": 7
      },
      {
        "routeNumber": "31",
        "order": 29
      },
      {
        "routeNumber": "47",
        "order": 22
      },
      {
        "routeNumber": "74",
        "order": 25
      }
    ],
    "localName": "Театр Кукол",
    "name": "Театр Кукол",
    "id": 986420560,
    "latitude": 55.7796055,
    "longitude": 49.1332885
  },
  {
    "routes": [
      {
        "routeNumber": "1",
        "order": 2
      },
      {
        "routeNumber": "41с",
        "order": 7
      },
      {
        "routeNumber": "60",
        "order": 2
      }
    ],
    "localName": "",
    "name": "Магазин «Восток»",
    "id": 986420563,
    "latitude": 55.8667614,
    "longitude": 49.2190504
  },
  {
    "routes": [
      {
        "routeNumber": "9",
        "order": 2
      },
      {
        "routeNumber": "41с",
        "order": 20
      },
      {
        "routeNumber": "88",
        "order": 2
      },
      {
        "routeNumber": "91",
        "order": 29
      }
    ],
    "localName": "",
    "name": "Стадион «Ракета»",
    "id": 986420565,
    "latitude": 55.8691731,
    "longitude": 49.2284637
  },
  {
    "routes": [
      {
        "routeNumber": "34",
        "order": 7
      },
      {
        "routeNumber": "36",
        "order": 39
      },
      {
        "routeNumber": "60",
        "order": 9
      }
    ],
    "localName": "Трамвайное депо",
    "name": "Трамвайное депо",
    "id": 986420568,
    "latitude": 55.8341263,
    "longitude": 49.1945424
  },
  {
    "routes": [
      {
        "routeNumber": "1",
        "order": 12
      },
      {
        "routeNumber": "4",
        "order": 24
      },
      {
        "routeNumber": "71",
        "order": 12
      }
    ],
    "localName": "ЦПКиО им.Горького",
    "name": "ЦПКиО им.Горького",
    "id": 986420573,
    "latitude": 55.7919246,
    "longitude": 49.1532946
  },
  {
    "routes": [
      {
        "routeNumber": "1",
        "order": 7
      },
      {
        "routeNumber": "2",
        "order": 6
      },
      {
        "routeNumber": "31",
        "order": 28
      },
      {
        "routeNumber": "47",
        "order": 21
      },
      {
        "routeNumber": "74",
        "order": 24
      }
    ],
    "localName": "улица Артёма Айдинова",
    "name": "улица Артёма Айдинова",
    "id": 986420578,
    "latitude": 55.7827529,
    "longitude": 49.1269094
  },
  {
    "routes": [
      {
        "routeNumber": "9",
        "order": 1
      },
      {
        "routeNumber": "9",
        "order": 14
      },
      {
        "routeNumber": "41с",
        "order": 19
      },
      {
        "routeNumber": "88",
        "order": 1
      },
      {
        "routeNumber": "91",
        "order": 28
      }
    ],
    "localName": "",
    "name": "пос.Дербышки",
    "id": 986420581,
    "latitude": 55.8714949,
    "longitude": 49.2222826
  },
  {
    "routes": [
      {
        "routeNumber": "1",
        "order": 4
      },
      {
        "routeNumber": "34",
        "order": 3
      },
      {
        "routeNumber": "41с",
        "order": 9
      },
      {
        "routeNumber": "60",
        "order": 4
      },
      {
        "routeNumber": "84",
        "order": 8
      },
      {
        "routeNumber": "91",
        "order": 8
      }
    ],
    "localName": "Строительное училище №33",
    "name": "Строительное училище №33",
    "id": 986420584,
    "latitude": 55.8597242,
    "longitude": 49.2141813
  },
  {
    "routes": [
      {
        "routeNumber": "31",
        "order": 22
      }
    ],
    "localName": "Автовокзал",
    "name": "Автовокзал",
    "id": 986420585,
    "latitude": 55.7720931,
    "longitude": 49.102986
  },
  {
    "routes": [
      {
        "routeNumber": "1",
        "order": 19
      },
      {
        "routeNumber": "4",
        "order": 19
      },
      {
        "routeNumber": "43",
        "order": 35
      }
    ],
    "localName": "улица Лейтенанта Шмидта",
    "name": "улица Лейтенанта Шмидта",
    "id": 986420588,
    "latitude": 55.7892324,
    "longitude": 49.151686
  },
  {
    "routes": [
      {
        "routeNumber": "1",
        "order": 9
      },
      {
        "routeNumber": "4",
        "order": 21
      },
      {
        "routeNumber": "43",
        "order": 15
      },
      {
        "routeNumber": "102",
        "order": 1
      }
    ],
    "localName": "Станция метро «Суконная Слобода»",
    "name": "Станция метро «Суконная Слобода»",
    "id": 986420589,
    "latitude": 55.7760816,
    "longitude": 49.1437928
  },
  {
    "routes": [
      {
        "routeNumber": "1",
        "order": 22
      },
      {
        "routeNumber": "2",
        "order": 7
      },
      {
        "routeNumber": "31",
        "order": 25
      },
      {
        "routeNumber": "47",
        "order": 16
      },
      {
        "routeNumber": "74",
        "order": 23
      }
    ],
    "localName": "Театр Кукол",
    "name": "Театр Кукол",
    "id": 986420590,
    "latitude": 55.7810084,
    "longitude": 49.1309887
  },
  {
    "routes": [
      {
        "routeNumber": "1",
        "order": 6
      },
      {
        "routeNumber": "2",
        "order": 5
      },
      {
        "routeNumber": "31",
        "order": 27
      },
      {
        "routeNumber": "47",
        "order": 20
      },
      {
        "routeNumber": "74",
        "order": 23
      }
    ],
    "localName": "Сквер имени Габдуллы Тукая",
    "name": "Сквер имени Габдуллы Тукая",
    "id": 986420592,
    "latitude": 55.7854659,
    "longitude": 49.1216426
  },
  {
    "routes": [
      {
        "routeNumber": "1",
        "order": 25
      },
      {
        "routeNumber": "6",
        "order": 32
      },
      {
        "routeNumber": "10а",
        "order": 33
      },
      {
        "routeNumber": "23",
        "order": 5
      },
      {
        "routeNumber": "31",
        "order": 28
      },
      {
        "routeNumber": "54",
        "order": 17
      },
      {
        "routeNumber": "56",
        "order": 5
      },
      {
        "routeNumber": "71",
        "order": 23
      },
      {
        "routeNumber": "72",
        "order": 27
      },
      {
        "routeNumber": "74",
        "order": 26
      },
      {
        "routeNumber": "77",
        "order": 17
      }
    ],
    "localName": "Старо-Татарская слобода",
    "name": "Старо-Татарская слобода",
    "id": 986420594,
    "latitude": 55.7821662,
    "longitude": 49.1147581
  },
  {
    "routes": [
      {
        "routeNumber": "1",
        "order": 30
      },
      {
        "routeNumber": "9",
        "order": 11
      },
      {
        "routeNumber": "34",
        "order": 45
      },
      {
        "routeNumber": "41с",
        "order": 5
      },
      {
        "routeNumber": "60",
        "order": 49
      },
      {
        "routeNumber": "88",
        "order": 5
      },
      {
        "routeNumber": "91",
        "order": 5
      }
    ],
    "localName": "",
    "name": "Стадион «Ракета»",
    "id": 986420595,
    "latitude": 55.8694849,
    "longitude": 49.2281528
  },
  {
    "routes": [
      {
        "routeNumber": "41с",
        "order": 17
      },
      {
        "routeNumber": "91",
        "order": 26
      }
    ],
    "localName": "Интернат",
    "name": "Интернат",
    "id": 986420597,
    "latitude": 55.8643349,
    "longitude": 49.2204339
  },
  {
    "routes": [
      {
        "routeNumber": "1",
        "order": 6
      },
      {
        "routeNumber": "4",
        "order": 7
      },
      {
        "routeNumber": "34",
        "order": 5
      },
      {
        "routeNumber": "41с",
        "order": 11
      },
      {
        "routeNumber": "60",
        "order": 6
      },
      {
        "routeNumber": "84",
        "order": 9
      },
      {
        "routeNumber": "91",
        "order": 10
      }
    ],
    "localName": "",
    "name": "пос.Нагорный",
    "id": 986420599,
    "latitude": 55.8451626,
    "longitude": 49.205458
  },
  {
    "routes": [
      {
        "routeNumber": "1",
        "order": 20
      },
      {
        "routeNumber": "4",
        "order": 20
      },
      {
        "routeNumber": "43",
        "order": 36
      }
    ],
    "localName": "улица Калинина",
    "name": "улица Калинина",
    "id": 986420600,
    "latitude": 55.7844599,
    "longitude": 49.1496755
  },
  {
    "routes": [
      {
        "routeNumber": "1",
        "order": 23
      },
      {
        "routeNumber": "2",
        "order": 8
      },
      {
        "routeNumber": "31",
        "order": 26
      },
      {
        "routeNumber": "47",
        "order": 17
      },
      {
        "routeNumber": "74",
        "order": 24
      }
    ],
    "localName": "улица Артёма Айдинова",
    "name": "улица Артёма Айдинова",
    "id": 986420602,
    "latitude": 55.7828153,
    "longitude": 49.1271464
  },
  {
    "routes": [
      {
        "routeNumber": "1",
        "order": 27
      },
      {
        "routeNumber": "6",
        "order": 34
      },
      {
        "routeNumber": "31",
        "order": 30
      },
      {
        "routeNumber": "53",
        "order": 25
      },
      {
        "routeNumber": "54",
        "order": 19
      },
      {
        "routeNumber": "71",
        "order": 25
      }
    ],
    "localName": "улица Татарстан",
    "name": "улица Татарстан",
    "id": 986420603,
    "latitude": 55.778594,
    "longitude": 49.1098441
  },
  {
    "routes": [
      {
        "routeNumber": "1",
        "order": 11
      },
      {
        "routeNumber": "4",
        "order": 11
      },
      {
        "routeNumber": "5",
        "order": 3
      },
      {
        "routeNumber": "18",
        "order": 28
      },
      {
        "routeNumber": "33",
        "order": 20
      },
      {
        "routeNumber": "34",
        "order": 13
      },
      {
        "routeNumber": "35",
        "order": 10
      },
      {
        "routeNumber": "91",
        "order": 16
      }
    ],
    "localName": "Национальный архив",
    "name": "Национальный архив",
    "id": 986420605,
    "latitude": 55.8114876,
    "longitude": 49.1811823
  },
  {
    "routes": [
      {
        "routeNumber": "1",
        "order": 26
      },
      {
        "routeNumber": "34",
        "order": 41
      },
      {
        "routeNumber": "41с",
        "order": 16
      },
      {
        "routeNumber": "60",
        "order": 45
      },
      {
        "routeNumber": "84",
        "order": 5
      },
      {
        "routeNumber": "91",
        "order": 25
      }
    ],
    "localName": "Строительное училище №33",
    "name": "Строительное училище №33",
    "id": 986420607,
    "latitude": 55.8597664,
    "longitude": 49.2146923
  },
  {
    "routes": [
      {
        "routeNumber": "31",
        "order": 32
      }
    ],
    "localName": "улица Зайцева",
    "name": "улица Зайцева",
    "id": 986420608,
    "latitude": 55.771303,
    "longitude": 49.1030253
  },
  {
    "routes": [
      {
        "routeNumber": "1",
        "order": 13
      },
      {
        "routeNumber": "4",
        "order": 13
      },
      {
        "routeNumber": "5",
        "order": 5
      },
      {
        "routeNumber": "18",
        "order": 30
      },
      {
        "routeNumber": "33",
        "order": 22
      },
      {
        "routeNumber": "34",
        "order": 15
      },
      {
        "routeNumber": "35",
        "order": 12
      },
      {
        "routeNumber": "91",
        "order": 18
      }
    ],
    "localName": "Пионерская улица",
    "name": "Пионерская улица",
    "id": 986420609,
    "latitude": 55.8052281,
    "longitude": 49.1841249
  },
  {
    "routes": [
      {
        "routeNumber": "1",
        "order": 5
      },
      {
        "routeNumber": "2",
        "order": 4
      },
      {
        "routeNumber": "10",
        "order": 38
      },
      {
        "routeNumber": "30",
        "order": 27
      },
      {
        "routeNumber": "31",
        "order": 26
      },
      {
        "routeNumber": "35a",
        "order": 19
      },
      {
        "routeNumber": "54",
        "order": 5
      },
      {
        "routeNumber": "71",
        "order": 5
      },
      {
        "routeNumber": "74",
        "order": 22
      },
      {
        "routeNumber": "77",
        "order": 20
      },
      {
        "routeNumber": "91",
        "order": 4
      }
    ],
    "localName": "Старо-Татарская слобода",
    "name": "Старо-Татарская слобода",
    "id": 986420620,
    "latitude": 55.782809,
    "longitude": 49.1165254
  },
  {
    "routes": [
      {
        "routeNumber": "1",
        "order": 26
      },
      {
        "routeNumber": "6",
        "order": 33
      },
      {
        "routeNumber": "31",
        "order": 29
      },
      {
        "routeNumber": "53",
        "order": 24
      },
      {
        "routeNumber": "54",
        "order": 18
      },
      {
        "routeNumber": "71",
        "order": 24
      }
    ],
    "localName": "улица Габдуллы Тукая",
    "name": "улица Габдуллы Тукая",
    "id": 986420623,
    "latitude": 55.7799195,
    "longitude": 49.1117019
  },
  {
    "routes": [
      {
        "routeNumber": "1",
        "order": 27
      },
      {
        "routeNumber": "34",
        "order": 42
      },
      {
        "routeNumber": "60",
        "order": 46
      },
      {
        "routeNumber": "84",
        "order": 6
      }
    ],
    "localName": "",
    "name": "Интернат",
    "id": 986420626,
    "latitude": 55.863087,
    "longitude": 49.2206698
  },
  {
    "routes": [
      {
        "routeNumber": "1",
        "order": 28
      },
      {
        "routeNumber": "6",
        "order": 35
      },
      {
        "routeNumber": "31",
        "order": 31
      },
      {
        "routeNumber": "53",
        "order": 26
      },
      {
        "routeNumber": "54",
        "order": 20
      },
      {
        "routeNumber": "71",
        "order": 26
      }
    ],
    "localName": "улица Карима Тинчурина",
    "name": "улица Карима Тинчурина",
    "id": 986420636,
    "latitude": 55.7759494,
    "longitude": 49.1063012
  },
  {
    "routes": [
      {
        "routeNumber": "1",
        "order": 12
      },
      {
        "routeNumber": "4",
        "order": 12
      },
      {
        "routeNumber": "5",
        "order": 4
      },
      {
        "routeNumber": "18",
        "order": 29
      },
      {
        "routeNumber": "33",
        "order": 21
      },
      {
        "routeNumber": "34",
        "order": 14
      },
      {
        "routeNumber": "35",
        "order": 11
      },
      {
        "routeNumber": "91",
        "order": 17
      }
    ],
    "localName": "улица Александра Попова",
    "name": "улица Александра Попова",
    "id": 986420638,
    "latitude": 55.8091252,
    "longitude": 49.1822269
  },
  {
    "routes": [
      {
        "routeNumber": "1",
        "order": 24
      },
      {
        "routeNumber": "34",
        "order": 39
      },
      {
        "routeNumber": "41с",
        "order": 14
      },
      {
        "routeNumber": "60",
        "order": 43
      },
      {
        "routeNumber": "84",
        "order": 4
      },
      {
        "routeNumber": "91",
        "order": 23
      }
    ],
    "localName": "",
    "name": "Жилой массив Нагорный",
    "id": 986420639,
    "latitude": 55.8466704,
    "longitude": 49.2066612
  },
  {
    "routes": [
      {
        "routeNumber": "1",
        "order": 16
      },
      {
        "routeNumber": "4",
        "order": 28
      },
      {
        "routeNumber": "10",
        "order": 48
      },
      {
        "routeNumber": "18",
        "order": 29
      },
      {
        "routeNumber": "35a",
        "order": 29
      },
      {
        "routeNumber": "55",
        "order": 19
      },
      {
        "routeNumber": "71",
        "order": 16
      },
      {
        "routeNumber": "91",
        "order": 14
      }
    ],
    "localName": "Советская площадь",
    "name": "Советская площадь",
    "id": 986420640,
    "latitude": 55.800973,
    "longitude": 49.1828047
  },
  {
    "routes": [
      {
        "routeNumber": "1",
        "order": 10
      },
      {
        "routeNumber": "4",
        "order": 22
      },
      {
        "routeNumber": "43",
        "order": 16
      }
    ],
    "localName": "",
    "name": "улица Калинина",
    "id": 986420641,
    "latitude": 55.7842411,
    "longitude": 49.1502019
  },
  {
    "routes": [
      {
        "routeNumber": "84",
        "order": 6
      }
    ],
    "localName": "Магазин «Комсомольский»",
    "name": "Магазин «Комсомольский»",
    "id": 986420651,
    "latitude": 55.8645437,
    "longitude": 49.2235424
  },
  {
    "routes": [
      {
        "routeNumber": "1",
        "order": 4
      },
      {
        "routeNumber": "6",
        "order": 4
      },
      {
        "routeNumber": "31",
        "order": 24
      },
      {
        "routeNumber": "53",
        "order": 4
      },
      {
        "routeNumber": "54",
        "order": 4
      },
      {
        "routeNumber": "71",
        "order": 3
      }
    ],
    "localName": "",
    "name": "улица Татарстан",
    "id": 986420653,
    "latitude": 55.7795539,
    "longitude": 49.1119254
  },
  {
    "routes": [
      {
        "routeNumber": "1",
        "order": 19
      },
      {
        "routeNumber": "4",
        "order": 31
      },
      {
        "routeNumber": "5",
        "order": 44
      },
      {
        "routeNumber": "18",
        "order": 32
      },
      {
        "routeNumber": "33",
        "order": 29
      },
      {
        "routeNumber": "34",
        "order": 30
      },
      {
        "routeNumber": "35a",
        "order": 32
      },
      {
        "routeNumber": "91",
        "order": 17
      }
    ],
    "localName": "Национальный архив",
    "name": "Национальный архив",
    "id": 986420654,
    "latitude": 55.8123844,
    "longitude": 49.1813165
  },
  {
    "routes": [
      {
        "routeNumber": "1",
        "order": 17
      },
      {
        "routeNumber": "4",
        "order": 29
      },
      {
        "routeNumber": "5",
        "order": 42
      },
      {
        "routeNumber": "18",
        "order": 30
      },
      {
        "routeNumber": "33",
        "order": 27
      },
      {
        "routeNumber": "34",
        "order": 28
      },
      {
        "routeNumber": "35a",
        "order": 30
      },
      {
        "routeNumber": "91",
        "order": 15
      }
    ],
    "localName": "Пионерская улица",
    "name": "Пионерская улица",
    "id": 986420655,
    "latitude": 55.8062506,
    "longitude": 49.1841963
  },
  {
    "routes": [
      {
        "routeNumber": "1",
        "order": 15
      },
      {
        "routeNumber": "4",
        "order": 15
      },
      {
        "routeNumber": "10а",
        "order": 24
      },
      {
        "routeNumber": "18",
        "order": 32
      },
      {
        "routeNumber": "35",
        "order": 14
      },
      {
        "routeNumber": "55",
        "order": 12
      },
      {
        "routeNumber": "71",
        "order": 14
      },
      {
        "routeNumber": "91",
        "order": 20
      }
    ],
    "localName": "Октябрьский Городок",
    "name": "Октябрьский городок",
    "id": 986420664,
    "latitude": 55.7975327,
    "longitude": 49.176282
  },
  {
    "routes": [
      {
        "routeNumber": "2",
        "order": 10
      },
      {
        "routeNumber": "30",
        "order": 37
      },
      {
        "routeNumber": "35",
        "order": 23
      },
      {
        "routeNumber": "47",
        "order": 19
      },
      {
        "routeNumber": "91",
        "order": 29
      }
    ],
    "localName": "Старо-Татарская слобода",
    "name": "Старо-Татарская слобода",
    "id": 986420667,
    "latitude": 55.7830797,
    "longitude": 49.1159813
  },
  {
    "routes": [
      {
        "routeNumber": "84",
        "order": 5
      }
    ],
    "localName": "",
    "name": "Советская улица",
    "id": 986420668,
    "latitude": 55.8670974,
    "longitude": 49.2323134
  },
  {
    "routes": [
      {
        "routeNumber": "1",
        "order": 3
      },
      {
        "routeNumber": "6",
        "order": 3
      },
      {
        "routeNumber": "31",
        "order": 23
      },
      {
        "routeNumber": "53",
        "order": 3
      },
      {
        "routeNumber": "54",
        "order": 3
      },
      {
        "routeNumber": "71",
        "order": 2
      }
    ],
    "localName": "улица Карима Тинчурина",
    "name": "улица Карима Тинчурина",
    "id": 986420675,
    "latitude": 55.776288,
    "longitude": 49.1073307
  },
  {
    "routes": [
      {
        "routeNumber": "1",
        "order": 18
      },
      {
        "routeNumber": "4",
        "order": 30
      },
      {
        "routeNumber": "5",
        "order": 43
      },
      {
        "routeNumber": "18",
        "order": 31
      },
      {
        "routeNumber": "33",
        "order": 28
      },
      {
        "routeNumber": "34",
        "order": 29
      },
      {
        "routeNumber": "35a",
        "order": 31
      },
      {
        "routeNumber": "91",
        "order": 16
      }
    ],
    "localName": "улица Александра Попова",
    "name": "улица Александра Попова",
    "id": 986420678,
    "latitude": 55.8100075,
    "longitude": 49.1824286
  },
  {
    "routes": [
      {
        "routeNumber": "1",
        "order": 14
      },
      {
        "routeNumber": "4",
        "order": 14
      },
      {
        "routeNumber": "10а",
        "order": 23
      },
      {
        "routeNumber": "18",
        "order": 31
      },
      {
        "routeNumber": "35",
        "order": 13
      },
      {
        "routeNumber": "55",
        "order": 11
      },
      {
        "routeNumber": "71",
        "order": 13
      },
      {
        "routeNumber": "91",
        "order": 19
      }
    ],
    "localName": "Советская площадь",
    "name": "Советская площадь",
    "id": 986420680,
    "latitude": 55.8007346,
    "longitude": 49.1814155
  },
  {
    "routes": [
      {
        "routeNumber": "1",
        "order": 2
      },
      {
        "routeNumber": "6",
        "order": 2
      },
      {
        "routeNumber": "53",
        "order": 2
      },
      {
        "routeNumber": "54",
        "order": 2
      }
    ],
    "localName": "Автовокзал",
    "name": "Автовокзал",
    "id": 986420683,
    "latitude": 55.7731493,
    "longitude": 49.1008869
  },
  {
    "routes": [
      {
        "routeNumber": "1",
        "order": 28
      },
      {
        "routeNumber": "34",
        "order": 43
      },
      {
        "routeNumber": "60",
        "order": 47
      },
      {
        "routeNumber": "84",
        "order": 7
      }
    ],
    "localName": "",
    "name": "Магазин «Комсомольский»",
    "id": 986420688,
    "latitude": 55.8649544,
    "longitude": 49.2252349
  },
  {
    "routes": [
      {
        "routeNumber": "1",
        "order": 15
      },
      {
        "routeNumber": "4",
        "order": 27
      },
      {
        "routeNumber": "10",
        "order": 47
      },
      {
        "routeNumber": "18",
        "order": 28
      },
      {
        "routeNumber": "35a",
        "order": 28
      },
      {
        "routeNumber": "55",
        "order": 18
      },
      {
        "routeNumber": "71",
        "order": 15
      },
      {
        "routeNumber": "91",
        "order": 13
      }
    ],
    "localName": "",
    "name": "Октябрьский городок",
    "id": 986420690,
    "latitude": 55.7967395,
    "longitude": 49.1759432
  },
  {
    "routes": [
      {
        "routeNumber": "18",
        "order": 34
      },
      {
        "routeNumber": "33",
        "order": 31
      },
      {
        "routeNumber": "34",
        "order": 12
      },
      {
        "routeNumber": "36",
        "order": 4
      },
      {
        "routeNumber": "41с",
        "order": 15
      },
      {
        "routeNumber": "60",
        "order": 14
      },
      {
        "routeNumber": "84",
        "order": 12
      }
    ],
    "localName": "улица Халитова",
    "name": "улица Халитова",
    "id": 986420700,
    "latitude": 55.8211924,
    "longitude": 49.1831813
  },
  {
    "routes": [
      {
        "routeNumber": "1",
        "order": 14
      },
      {
        "routeNumber": "4",
        "order": 26
      },
      {
        "routeNumber": "10",
        "order": 46
      },
      {
        "routeNumber": "18",
        "order": 27
      },
      {
        "routeNumber": "35a",
        "order": 27
      },
      {
        "routeNumber": "55",
        "order": 17
      },
      {
        "routeNumber": "71",
        "order": 14
      },
      {
        "routeNumber": "91",
        "order": 12
      }
    ],
    "localName": "Кооперативный институт",
    "name": "Кооперативный институт",
    "id": 986420704,
    "latitude": 55.7942038,
    "longitude": 49.1722631
  },
  {
    "routes": [
      {
        "routeNumber": "1",
        "order": 29
      },
      {
        "routeNumber": "6",
        "order": 36
      },
      {
        "routeNumber": "53",
        "order": 27
      },
      {
        "routeNumber": "54",
        "order": 21
      }
    ],
    "localName": "Автовокзал",
    "name": "Автовокзал",
    "id": 986420707,
    "latitude": 55.7734502,
    "longitude": 49.0985295
  },
  {
    "routes": [
      {
        "routeNumber": "1",
        "order": 7
      },
      {
        "routeNumber": "4",
        "order": 8
      },
      {
        "routeNumber": "34",
        "order": 6
      },
      {
        "routeNumber": "41с",
        "order": 13
      },
      {
        "routeNumber": "60",
        "order": 8
      },
      {
        "routeNumber": "84",
        "order": 10
      },
      {
        "routeNumber": "91",
        "order": 12
      }
    ],
    "localName": "жилой массив Карьер",
    "name": "жилой массив Карьер",
    "id": 986420710,
    "latitude": 55.8390517,
    "longitude": 49.1978079
  },
  {
    "routes": [
      {
        "routeNumber": "1",
        "order": 29
      },
      {
        "routeNumber": "9",
        "order": 10
      },
      {
        "routeNumber": "34",
        "order": 44
      },
      {
        "routeNumber": "41с",
        "order": 4
      },
      {
        "routeNumber": "60",
        "order": 48
      },
      {
        "routeNumber": "88",
        "order": 4
      },
      {
        "routeNumber": "91",
        "order": 4
      }
    ],
    "localName": "Советская улица",
    "name": "Советская улица",
    "id": 986420713,
    "latitude": 55.8677303,
    "longitude": 49.2321799
  },
  {
    "routes": [
      {
        "routeNumber": "1",
        "order": 9
      },
      {
        "routeNumber": "4",
        "order": 10
      },
      {
        "routeNumber": "5",
        "order": 1
      },
      {
        "routeNumber": "5",
        "order": 46
      },
      {
        "routeNumber": "91",
        "order": 14
      }
    ],
    "localName": "улица Халитова",
    "name": "улица Халитова",
    "id": 986420722,
    "latitude": 55.8202904,
    "longitude": 49.1825451
  },
  {
    "routes": [
      {
        "routeNumber": "9",
        "order": 13
      },
      {
        "routeNumber": "41с",
        "order": 18
      },
      {
        "routeNumber": "91",
        "order": 27
      }
    ],
    "localName": "",
    "name": "Магазин «Восток»",
    "id": 986420724,
    "latitude": 55.8671175,
    "longitude": 49.2187577
  },
  {
    "routes": [
      {
        "routeNumber": "34",
        "order": 37
      },
      {
        "routeNumber": "60",
        "order": 40
      }
    ],
    "localName": "Трамвайное депо",
    "name": "Трамвайное депо",
    "id": 986420726,
    "latitude": 55.8341884,
    "longitude": 49.1948086
  },
  {
    "routes": [
      {
        "routeNumber": "1",
        "order": 1
      },
      {
        "routeNumber": "1",
        "order": 30
      },
      {
        "routeNumber": "6",
        "order": 1
      },
      {
        "routeNumber": "6",
        "order": 37
      },
      {
        "routeNumber": "53",
        "order": 1
      },
      {
        "routeNumber": "53",
        "order": 28
      },
      {
        "routeNumber": "54",
        "order": 1
      },
      {
        "routeNumber": "54",
        "order": 22
      }
    ],
    "localName": "Речной порт",
    "name": "Речной порт",
    "id": 986420737,
    "latitude": 55.7740937,
    "longitude": 49.0932715
  },
  {
    "routes": [
      {
        "routeNumber": "1",
        "order": 1
      },
      {
        "routeNumber": "1",
        "order": 31
      },
      {
        "routeNumber": "11",
        "order": 1
      },
      {
        "routeNumber": "11",
        "order": 10
      },
      {
        "routeNumber": "41с",
        "order": 6
      },
      {
        "routeNumber": "60",
        "order": 1
      },
      {
        "routeNumber": "60",
        "order": 50
      },
      {
        "routeNumber": "88",
        "order": 6
      }
    ],
    "localName": "",
    "name": "пос.Дербышки",
    "id": 986420739,
    "latitude": 55.8714594,
    "longitude": 49.2217132
  },
  {
    "routes": [
      {
        "routeNumber": "30",
        "order": 8
      },
      {
        "routeNumber": "45",
        "order": 3
      }
    ],
    "localName": "",
    "name": "Затон",
    "id": 986524325,
    "latitude": 55.8035147,
    "longitude": 48.9428474
  },
  {
    "routes": [
      {
        "routeNumber": "2",
        "order": 2
      }
    ],
    "localName": "",
    "name": "Школа №14",
    "id": 986524327,
    "latitude": 55.7685627,
    "longitude": 49.1601479
  },
  {
    "routes": [
      {
        "routeNumber": "30",
        "order": 1
      },
      {
        "routeNumber": "30",
        "order": 64
      }
    ],
    "localName": "Привокзальная улица",
    "name": "Привокзальная улица",
    "id": 986524328,
    "latitude": 55.8151166,
    "longitude": 48.893527
  },
  {
    "routes": [
      {
        "routeNumber": "30",
        "order": 46
      },
      {
        "routeNumber": "45",
        "order": 59
      }
    ],
    "localName": "Боевая улица",
    "name": "Боевая улица",
    "id": 986524330,
    "latitude": 55.7997577,
    "longitude": 49.0339159
  },
  {
    "routes": [
      {
        "routeNumber": "30",
        "order": 14
      },
      {
        "routeNumber": "45",
        "order": 9
      }
    ],
    "localName": "",
    "name": "Поликлиника №4",
    "id": 986524332,
    "latitude": 55.8018023,
    "longitude": 48.9981895
  },
  {
    "routes": [
      {
        "routeNumber": "30",
        "order": 58
      },
      {
        "routeNumber": "45",
        "order": 71
      }
    ],
    "localName": "Гипсовый завод",
    "name": "Гипсовый завод",
    "id": 986524333,
    "latitude": 55.8060778,
    "longitude": 48.9363635
  },
  {
    "routes": [
      {
        "routeNumber": "30",
        "order": 55
      },
      {
        "routeNumber": "45",
        "order": 68
      }
    ],
    "localName": "улица Гумера Баширова",
    "name": "улица Гумера Баширова",
    "id": 986524334,
    "latitude": 55.8021943,
    "longitude": 48.9629959
  },
  {
    "routes": [
      {
        "routeNumber": "30",
        "order": 60
      }
    ],
    "localName": "Школа №8",
    "name": "Школа №8",
    "id": 986524335,
    "latitude": 55.8096923,
    "longitude": 48.9197458
  },
  {
    "routes": [
      {
        "routeNumber": "30",
        "order": 13
      },
      {
        "routeNumber": "45",
        "order": 8
      }
    ],
    "localName": "жилой массив Алтай",
    "name": "жилой массив Алтай",
    "id": 986524336,
    "latitude": 55.8005892,
    "longitude": 48.9842797
  },
  {
    "routes": [
      {
        "routeNumber": "30",
        "order": 57
      },
      {
        "routeNumber": "45",
        "order": 70
      }
    ],
    "localName": "",
    "name": "Затон",
    "id": 986524338,
    "latitude": 55.8038214,
    "longitude": 48.9423364
  },
  {
    "routes": [
      {
        "routeNumber": "4",
        "order": 22
      },
      {
        "routeNumber": "5",
        "order": 9
      },
      {
        "routeNumber": "31",
        "order": 31
      },
      {
        "routeNumber": "47",
        "order": 24
      },
      {
        "routeNumber": "74",
        "order": 27
      },
      {
        "routeNumber": "77",
        "order": 22
      }
    ],
    "localName": "",
    "name": "Концертный зал филармонии",
    "id": 986524339,
    "latitude": 55.7725906,
    "longitude": 49.1404538
  },
  {
    "routes": [
      {
        "routeNumber": "2",
        "order": 11
      }
    ],
    "localName": "Школа №14",
    "name": "Школа №14",
    "id": 986524340,
    "latitude": 55.7686323,
    "longitude": 49.159881
  },
  {
    "routes": [
      {
        "routeNumber": "30",
        "order": 2
      }
    ],
    "localName": "",
    "name": "Богатырская улица",
    "id": 986524341,
    "latitude": 55.8141258,
    "longitude": 48.9024046
  },
  {
    "routes": [
      {
        "routeNumber": "30",
        "order": 51
      },
      {
        "routeNumber": "45",
        "order": 64
      }
    ],
    "localName": "",
    "name": "Поликлиника №4",
    "id": 986524343,
    "latitude": 55.8019234,
    "longitude": 48.9970459
  },
  {
    "routes": [
      {
        "routeNumber": "5",
        "order": 39
      },
      {
        "routeNumber": "43",
        "order": 38
      }
    ],
    "localName": "улица Павлюхина",
    "name": "улица Павлюхина",
    "id": 986524344,
    "latitude": 55.7730353,
    "longitude": 49.1386887
  },
  {
    "routes": [
      {
        "routeNumber": "30",
        "order": 62
      }
    ],
    "localName": "",
    "name": "жилой массив Красная Горка",
    "id": 986524346,
    "latitude": 55.8095893,
    "longitude": 48.9053286
  },
  {
    "routes": [
      {
        "routeNumber": "30",
        "order": 5
      }
    ],
    "localName": "Школа №8",
    "name": "Школа №8",
    "id": 986524347,
    "latitude": 55.8096792,
    "longitude": 48.9184442
  },
  {
    "routes": [
      {
        "routeNumber": "30",
        "order": 52
      },
      {
        "routeNumber": "45",
        "order": 65
      }
    ],
    "localName": "",
    "name": "жилой массив Алтай",
    "id": 986524348,
    "latitude": 55.8007377,
    "longitude": 48.9843693
  },
  {
    "routes": [
      {
        "routeNumber": "4",
        "order": 20
      },
      {
        "routeNumber": "43",
        "order": 14
      },
      {
        "routeNumber": "77",
        "order": 15
      }
    ],
    "localName": "улица Павлюхина",
    "name": "улица Павлюхина",
    "id": 986524349,
    "latitude": 55.7735152,
    "longitude": 49.140024
  },
  {
    "routes": [
      {
        "routeNumber": "30",
        "order": 42
      },
      {
        "routeNumber": "45",
        "order": 55
      }
    ],
    "localName": "улица Серп и Молот",
    "name": "улица Серп и Молот",
    "id": 986524350,
    "latitude": 55.8000234,
    "longitude": 49.0681182
  },
  {
    "routes": [
      {
        "routeNumber": "30",
        "order": 63
      }
    ],
    "localName": "",
    "name": "улица Богатырская",
    "id": 986524351,
    "latitude": 55.8148111,
    "longitude": 48.9026497
  },
  {
    "routes": [
      {
        "routeNumber": "30",
        "order": 50
      },
      {
        "routeNumber": "45",
        "order": 63
      }
    ],
    "localName": "",
    "name": "Водозабор",
    "id": 986524353,
    "latitude": 55.8018149,
    "longitude": 49.001362
  },
  {
    "routes": [
      {
        "routeNumber": "2",
        "order": 6
      },
      {
        "routeNumber": "31",
        "order": 24
      },
      {
        "routeNumber": "47",
        "order": 15
      },
      {
        "routeNumber": "74",
        "order": 22
      },
      {
        "routeNumber": "77",
        "order": 16
      }
    ],
    "localName": "",
    "name": "улица Туфана Миннуллина",
    "id": 986524354,
    "latitude": 55.776415,
    "longitude": 49.132461
  },
  {
    "routes": [
      {
        "routeNumber": "30",
        "order": 22
      },
      {
        "routeNumber": "45",
        "order": 17
      }
    ],
    "localName": "улица Урицкого",
    "name": "улица Урицкого",
    "id": 986524357,
    "latitude": 55.7985735,
    "longitude": 49.0578145
  },
  {
    "routes": [
      {
        "routeNumber": "30",
        "order": 3
      }
    ],
    "localName": "жилой массив Красная Горка",
    "name": "жилой массив Красная Горка",
    "id": 986524359,
    "latitude": 55.8094631,
    "longitude": 48.9038215
  },
  {
    "routes": [
      {
        "routeNumber": "2",
        "order": 5
      },
      {
        "routeNumber": "4",
        "order": 19
      },
      {
        "routeNumber": "5",
        "order": 38
      },
      {
        "routeNumber": "31",
        "order": 23
      },
      {
        "routeNumber": "47",
        "order": 14
      },
      {
        "routeNumber": "74",
        "order": 21
      },
      {
        "routeNumber": "77",
        "order": 14
      }
    ],
    "localName": "",
    "name": "Концертный зал филармонии",
    "id": 986524360,
    "latitude": 55.7720635,
    "longitude": 49.1421765
  },
  {
    "routes": [
      {
        "routeNumber": "30",
        "order": 49
      },
      {
        "routeNumber": "45",
        "order": 62
      }
    ],
    "localName": "",
    "name": "станция «Лагерная»",
    "id": 986524362,
    "latitude": 55.8009208,
    "longitude": 49.0099528
  },
  {
    "routes": [
      {
        "routeNumber": "30",
        "order": 23
      },
      {
        "routeNumber": "45",
        "order": 18
      }
    ],
    "localName": "улица Серп и Молот",
    "name": "улица Серп и Молот",
    "id": 986524363,
    "latitude": 55.7996193,
    "longitude": 49.0671087
  },
  {
    "routes": [
      {
        "routeNumber": "30",
        "order": 48
      },
      {
        "routeNumber": "45",
        "order": 61
      }
    ],
    "localName": "",
    "name": "Товарный двор",
    "id": 986524364,
    "latitude": 55.8006252,
    "longitude": 49.0180592
  },
  {
    "routes": [
      {
        "routeNumber": "30",
        "order": 15
      },
      {
        "routeNumber": "45",
        "order": 10
      }
    ],
    "localName": "",
    "name": "Водозабор",
    "id": 986524366,
    "latitude": 55.8015435,
    "longitude": 49.0028573
  },
  {
    "routes": [
      {
        "routeNumber": "31",
        "order": 30
      },
      {
        "routeNumber": "47",
        "order": 23
      },
      {
        "routeNumber": "74",
        "order": 26
      },
      {
        "routeNumber": "77",
        "order": 21
      }
    ],
    "localName": "",
    "name": "улица Туфана Миннуллина",
    "id": 986524367,
    "latitude": 55.7762694,
    "longitude": 49.1320426
  },
  {
    "routes": [
      {
        "routeNumber": "30",
        "order": 43
      },
      {
        "routeNumber": "45",
        "order": 56
      }
    ],
    "localName": "улица Урицкого",
    "name": "улица Урицкого",
    "id": 986524368,
    "latitude": 55.7989088,
    "longitude": 49.0591267
  },
  {
    "routes": [
      {
        "routeNumber": "30",
        "order": 17
      },
      {
        "routeNumber": "45",
        "order": 12
      }
    ],
    "localName": "Слесарная улица",
    "name": "Слесарная улица",
    "id": 986524370,
    "latitude": 55.8003232,
    "longitude": 49.0220684
  },
  {
    "routes": [
      {
        "routeNumber": "30",
        "order": 16
      },
      {
        "routeNumber": "45",
        "order": 11
      }
    ],
    "localName": "",
    "name": "станция «Лагерная»",
    "id": 986524372,
    "latitude": 55.8007101,
    "longitude": 49.0106354
  },
  {
    "routes": [
      {
        "routeNumber": "30",
        "order": 6
      }
    ],
    "localName": "жилой массив Новостройка",
    "name": "жилой массив Новостройка",
    "id": 986524373,
    "latitude": 55.8085211,
    "longitude": 48.9280293
  },
  {
    "routes": [
      {
        "routeNumber": "2",
        "order": 2
      },
      {
        "routeNumber": "5",
        "order": 3
      },
      {
        "routeNumber": "23",
        "order": 3
      },
      {
        "routeNumber": "30",
        "order": 25
      },
      {
        "routeNumber": "35a",
        "order": 17
      },
      {
        "routeNumber": "47",
        "order": 18
      },
      {
        "routeNumber": "56",
        "order": 3
      },
      {
        "routeNumber": "72",
        "order": 25
      },
      {
        "routeNumber": "91",
        "order": 2
      }
    ],
    "localName": "",
    "name": "улица Чернышевского (Московская)",
    "id": 986524374,
    "latitude": 55.7899864,
    "longitude": 49.106451
  },
  {
    "routes": [
      {
        "routeNumber": "2",
        "order": 11
      },
      {
        "routeNumber": "5",
        "order": 45
      },
      {
        "routeNumber": "6",
        "order": 6
      },
      {
        "routeNumber": "23",
        "order": 25
      },
      {
        "routeNumber": "30",
        "order": 38
      },
      {
        "routeNumber": "35",
        "order": 24
      },
      {
        "routeNumber": "47",
        "order": 20
      },
      {
        "routeNumber": "56",
        "order": 27
      },
      {
        "routeNumber": "72",
        "order": 2
      },
      {
        "routeNumber": "91",
        "order": 30
      }
    ],
    "localName": "",
    "name": "Колхозный рынок",
    "id": 986524376,
    "latitude": 55.7869459,
    "longitude": 49.1104213
  },
  {
    "routes": [
      {
        "routeNumber": "10",
        "order": 34
      },
      {
        "routeNumber": "30",
        "order": 24
      },
      {
        "routeNumber": "53",
        "order": 21
      },
      {
        "routeNumber": "72",
        "order": 24
      },
      {
        "routeNumber": "74",
        "order": 18
      }
    ],
    "localName": "Железнодорожный вокзал",
    "name": "Железнодорожный вокзал",
    "id": 986524378,
    "latitude": 55.7887114,
    "longitude": 49.1017281
  },
  {
    "routes": [
      {
        "routeNumber": "2",
        "order": 12
      },
      {
        "routeNumber": "5",
        "order": 46
      },
      {
        "routeNumber": "6",
        "order": 7
      },
      {
        "routeNumber": "23",
        "order": 26
      },
      {
        "routeNumber": "30",
        "order": 39
      },
      {
        "routeNumber": "35",
        "order": 25
      },
      {
        "routeNumber": "47",
        "order": 21
      },
      {
        "routeNumber": "56",
        "order": 28
      },
      {
        "routeNumber": "72",
        "order": 3
      },
      {
        "routeNumber": "91",
        "order": 31
      }
    ],
    "localName": "",
    "name": "улица Чернышевского (Московская)",
    "id": 986524379,
    "latitude": 55.7892342,
    "longitude": 49.1076469
  },
  {
    "routes": [
      {
        "routeNumber": "30",
        "order": 47
      },
      {
        "routeNumber": "45",
        "order": 60
      }
    ],
    "localName": "Западная улица",
    "name": "Западная улица",
    "id": 986524380,
    "latitude": 55.800161,
    "longitude": 49.027408
  },
  {
    "routes": [
      {
        "routeNumber": "2",
        "order": 3
      }
    ],
    "localName": "",
    "name": "улица Мичурина",
    "id": 986524381,
    "latitude": 55.7722851,
    "longitude": 49.1554019
  },
  {
    "routes": [
      {
        "routeNumber": "30",
        "order": 59
      }
    ],
    "localName": "жилой массив Новостройка",
    "name": "жилой массив Новостройка",
    "id": 986524383,
    "latitude": 55.8087146,
    "longitude": 48.9278897
  },
  {
    "routes": [
      {
        "routeNumber": "2",
        "order": 14
      },
      {
        "routeNumber": "5",
        "order": 47
      },
      {
        "routeNumber": "10а",
        "order": 38
      },
      {
        "routeNumber": "30",
        "order": 41
      },
      {
        "routeNumber": "53",
        "order": 9
      },
      {
        "routeNumber": "72",
        "order": 5
      },
      {
        "routeNumber": "74",
        "order": 31
      },
      {
        "routeNumber": "91",
        "order": 32
      }
    ],
    "localName": "улица Саид-Галеева",
    "name": "улица Саид-Галеева",
    "id": 986524385,
    "latitude": 55.7910108,
    "longitude": 49.0998711
  },
  {
    "routes": [
      {
        "routeNumber": "30",
        "order": 45
      },
      {
        "routeNumber": "45",
        "order": 58
      }
    ],
    "localName": "Набережная улица",
    "name": "Набережная улица",
    "id": 986524387,
    "latitude": 55.7981912,
    "longitude": 49.0426314
  },
  {
    "routes": [
      {
        "routeNumber": "30",
        "order": 21
      },
      {
        "routeNumber": "45",
        "order": 16
      }
    ],
    "localName": "Адмиралтейская улица",
    "name": "Адмиралтейская улица",
    "id": 986524388,
    "latitude": 55.7976906,
    "longitude": 49.050205
  },
  {
    "routes": [
      {
        "routeNumber": "2",
        "order": 3
      },
      {
        "routeNumber": "5",
        "order": 4
      },
      {
        "routeNumber": "23",
        "order": 4
      },
      {
        "routeNumber": "30",
        "order": 26
      },
      {
        "routeNumber": "35a",
        "order": 18
      },
      {
        "routeNumber": "47",
        "order": 19
      },
      {
        "routeNumber": "56",
        "order": 4
      },
      {
        "routeNumber": "72",
        "order": 26
      },
      {
        "routeNumber": "91",
        "order": 3
      }
    ],
    "localName": "",
    "name": "Колхозный рынок",
    "id": 986524389,
    "latitude": 55.7870558,
    "longitude": 49.1099327
  },
  {
    "routes": [
      {
        "routeNumber": "30",
        "order": 56
      },
      {
        "routeNumber": "45",
        "order": 69
      }
    ],
    "localName": "жилой массив Новое Аракчино",
    "name": "жилой массив Новое Аракчино",
    "id": 986524390,
    "latitude": 55.8024241,
    "longitude": 48.9513406
  },
  {
    "routes": [
      {
        "routeNumber": "2",
        "order": 13
      },
      {
        "routeNumber": "10а",
        "order": 37
      },
      {
        "routeNumber": "30",
        "order": 40
      },
      {
        "routeNumber": "53",
        "order": 8
      },
      {
        "routeNumber": "72",
        "order": 4
      },
      {
        "routeNumber": "74",
        "order": 30
      }
    ],
    "localName": "",
    "name": "Железнодорожный вокзал",
    "id": 986524391,
    "latitude": 55.7888412,
    "longitude": 49.1020953
  },
  {
    "routes": [
      {
        "routeNumber": "30",
        "order": 19
      },
      {
        "routeNumber": "45",
        "order": 14
      }
    ],
    "localName": "Боевая улица",
    "name": "Боевая улица",
    "id": 986524394,
    "latitude": 55.7996452,
    "longitude": 49.0329882
  },
  {
    "routes": [
      {
        "routeNumber": "30",
        "order": 44
      },
      {
        "routeNumber": "45",
        "order": 57
      }
    ],
    "localName": "Адмиралтейская улица",
    "name": "Адмиралтейская улица",
    "id": 986524395,
    "latitude": 55.7977667,
    "longitude": 49.0498436
  },
  {
    "routes": [
      {
        "routeNumber": "2",
        "order": 10
      }
    ],
    "localName": "",
    "name": "улица Мичурина",
    "id": 986524396,
    "latitude": 55.7721128,
    "longitude": 49.1554164
  },
  {
    "routes": [
      {
        "routeNumber": "30",
        "order": 7
      },
      {
        "routeNumber": "45",
        "order": 2
      }
    ],
    "localName": "Гипсовый завод",
    "name": "Гипсовый завод",
    "id": 986524397,
    "latitude": 55.8054882,
    "longitude": 48.9367269
  },
  {
    "routes": [
      {
        "routeNumber": "30",
        "order": 10
      },
      {
        "routeNumber": "45",
        "order": 5
      }
    ],
    "localName": "улица Гумера Баширова",
    "name": "улица Гумера Баширова",
    "id": 986524398,
    "latitude": 55.8022623,
    "longitude": 48.9620332
  },
  {
    "routes": [
      {
        "routeNumber": "4",
        "order": 26
      },
      {
        "routeNumber": "5",
        "order": 13
      },
      {
        "routeNumber": "47",
        "order": 28
      },
      {
        "routeNumber": "74",
        "order": 31
      }
    ],
    "localName": "Танковая улица",
    "name": "Танковая улица",
    "id": 986552198,
    "latitude": 55.7533519,
    "longitude": 49.1612942
  },
  {
    "routes": [
      {
        "routeNumber": "4",
        "order": 42
      }
    ],
    "localName": "",
    "name": "Жилой массив Новая Сосновка",
    "id": 986552229,
    "latitude": 55.8418111,
    "longitude": 49.2404836
  },
  {
    "routes": [
      {
        "routeNumber": "4",
        "order": 14
      },
      {
        "routeNumber": "5",
        "order": 33
      },
      {
        "routeNumber": "47",
        "order": 9
      },
      {
        "routeNumber": "74",
        "order": 16
      }
    ],
    "localName": "улица Латышских Стрелков",
    "name": "улица Латышских Стрелков",
    "id": 986552245,
    "latitude": 55.7528624,
    "longitude": 49.1663528
  },
  {
    "routes": [
      {
        "routeNumber": "4",
        "order": 3
      }
    ],
    "localName": "",
    "name": "жилой массив Нагорный 2",
    "id": 986552248,
    "latitude": 55.8505689,
    "longitude": 49.2330666
  },
  {
    "routes": [
      {
        "routeNumber": "4",
        "order": 37
      },
      {
        "routeNumber": "22",
        "order": 38
      },
      {
        "routeNumber": "33",
        "order": 45
      },
      {
        "routeNumber": "34",
        "order": 39
      },
      {
        "routeNumber": "45",
        "order": 70
      }
    ],
    "localName": "ДРКБ",
    "name": "Балалар Республика Клиник Хастаханэсе",
    "id": 986552250,
    "latitude": 55.7279345,
    "longitude": 49.176928
  },
  {
    "routes": [
      {
        "routeNumber": "4",
        "order": 15
      },
      {
        "routeNumber": "5",
        "order": 34
      },
      {
        "routeNumber": "47",
        "order": 10
      },
      {
        "routeNumber": "74",
        "order": 17
      }
    ],
    "localName": "Танковая улица",
    "name": "Танковая улица",
    "id": 986552261,
    "latitude": 55.7536187,
    "longitude": 49.1615903
  },
  {
    "routes": [
      {
        "routeNumber": "4",
        "order": 41
      }
    ],
    "localName": "",
    "name": "Улица Машиностроителей",
    "id": 986552264,
    "latitude": 55.8406843,
    "longitude": 49.2361486
  },
  {
    "routes": [
      {
        "routeNumber": "4",
        "order": 5
      },
      {
        "routeNumber": "33",
        "order": 5
      },
      {
        "routeNumber": "34",
        "order": 4
      },